{"type": "FeatureCollection", "features": [{"geometry": {"type": "Point", "coordinates": [11.281996679700123, 43.7844108857817]}, 
 "type": "Feature", "properties": {"indirizzo": "Via Giovan Battista Amici, 1 - Firenze", "denominazi": "Villa delle Terme - Divisione Marconi", "id": 30, "tipologia": "Case di cura e cliniche private"}}, {"geometry": {"type": "Point", "coordinates": [11.205195608074417, 43.75982074179496]},
 "type": "Feature", "properties": {"indirizzo": "Via di Scandicci, 269 -  Firenze", "denominazi": "IRCCS - Centro Riabilitazione Don Carlo Gnocchi", "id": 23, "tipologia": "Case di cura e cliniche private"}}, {"geometry": {"type": "Point", "coordinates": [11.2502453770895, 43.80395516044379]}, 
 "type": "Feature", "properties": {"indirizzo": "Via del Pergolino, 4/6 - Firenze", "denominazi": "Casa di cura Ulivella e Glicini", "id": 18, "tipologia": "Case di cura e cliniche private"}}, {"geometry": {"type": "Point", "coordinates": [11.24769496113076, 43.802429728754035]}, 
 "type": "Feature", "properties": {"indirizzo": "Largo Piero Palagi, 1 - Firenze", "denominazi": "CTO Centro Traumatologico Ortopedico - AOU CAREGGI", "id": 5, "tipologia": "Ospedale Pubblico - AOU Careggi"}}, {"geometry": {"type": "Point", "coordinates": [11.24851151751472, 43.812240816701205]}, 
 "type": "Feature", "properties": {"indirizzo": "Via delle Oblate, 4  - Firenze", "denominazi": "Ponte Nuovo - AOU Careggi", "id": 9, "tipologia": "Ospedale Pubblico - AOU Careggi"}}, {"geometry": {"type": "Point", "coordinates": [11.250133487477116, 43.80720531606785]}, 
 "type": "Feature", "properties": {"indirizzo": "Viale Gaetano Pieraccini, 18 - Firenze", "denominazi": "Monna Tessa - AOU Careggi", "id": 7, "tipologia": "Ospedale Pubblico - AOU Careggi"}}, {"geometry": {"type": "Point", "coordinates": [11.28525665343015, 43.77026339865982]}, 
 "type": "Feature", "properties": {"indirizzo": "Via di San Salvi, 12 - Firenze", "denominazi": "Ufficio Relazioni con il Pubblico dell' AZIENDA USL TOSCANA CENTRO -  Area Fiorentina", "id": 1, "tipologia": "URP -  AZIENDA USL TOSCANA CENTRO"}}, {"geometry": {"type": "Point", "coordinates": [11.250521711362572, 43.80991471760945]}, 
 "type": "Feature", "properties": {"indirizzo": "Viale Gaetano Pieraccini, 24 - Firenze", "denominazi": "Ufficio Relazioni con il Pubblico dell' AOU MEYER", "id": 28, "tipologia": "URP -  AOU MEYER"}}, {"geometry": {"type": "Point", "coordinates": [11.271495871314798, 43.757928765873125]}, 
 "type": "Feature", "properties": {"indirizzo": "Viale Michelangiolo, 41 -  Firenze", "denominazi": "Ospedale Piero Palagi - AZIENDA USL", "id": 25, "tipologia": "Ospedale Pubblico - AZIENDA USL"}}, {"geometry": {"type": "Point", "coordinates": [11.203248124823014, 43.75870989793951]}, 
 "type": "Feature", "properties": {"indirizzo": "Via di Torregalli, 3 -  Firenze", "denominazi": "Nuovo Ospedale S. Giovanni di Dio - AZIENDA USL", "id": 26, "tipologia": "Ospedale Pubblico - AZIENDA USL"}}, {"geometry": {"type": "Point", "coordinates": [11.259826669968819, 43.77334965899309]}, 
 "type": "Feature", "properties": {"indirizzo": "Piazza di Santa Maria Nuova, 1 -  Firenze", "denominazi": "Ospedale S. Maria Nuova - AZIENDA USL", "id": 27, "tipologia": "Ospedale Pubblico - AZIENDA USL"}}, {"geometry": {"type": "Point", "coordinates": [11.234052602087477, 43.75920859082527]}, 
 "type": "Feature", "properties": {"indirizzo": "Via Ugo Foscolo, 78 -  Firenze", "denominazi": "Villa dei Pini", "id": 19, "tipologia": "Case di cura e cliniche private"}}, {"geometry": {"type": "Point", "coordinates": [11.250503013044726, 43.80992799492275]}, 
 "type": "Feature", "properties": {"indirizzo": "Viale Gaetano Pieraccini, 24 - Firenze", "denominazi": "AZIENDA UNIVERSITARIA POLICLINICO MEYER - AOU MEYER", "id": 3, "tipologia": "Azienda ospedaliera - AOU MEYER"}}, {"geometry": {"type": "Point", "coordinates": [11.256057718150737, 43.7866208297222]}, 
 "type": "Feature", "properties": {"indirizzo": "Via della Cernaia, 18 - Firenze", "denominazi": "Villa Maria Teresa hospital", "id": 21, "tipologia": "Case di cura e cliniche private"}}, {"geometry": {"type": "Point", "coordinates": [11.270111472754001, 43.77174464694246]}, 
 "type": "Feature", "properties": {"indirizzo": "Via Alessandro Manzoni, 12 - Firenze", "denominazi": "Villa Maria Beatrice hospital", "id": 16, "tipologia": "Case di cura e cliniche private"}}, {"geometry": {"type": "Point", "coordinates": [11.26762263528272, 43.778461390833314]}, 
 "type": "Feature", "properties": {"indirizzo": "Piazzale Donatello, 14 - Firenze", "denominazi": "Casa di cura Villa Donatello", "id": 22, "tipologia": "Case di cura e cliniche private"}}, {"geometry": {"type": "Point", "coordinates": [11.2458690466628, 43.80349057127228]}, 
 "type": "Feature", "properties": {"indirizzo": "Largo Giovanni Alessandro Brambilla, 3 - Firenze", "denominazi": "AZIENDA OSPEDALIERA CAREGGI - AOU CAREGGI", "id": 2, "tipologia": "Azienda Ospedaliera -  AOU CAREGGI"}}, {"geometry": {"type": "Point", "coordinates": [11.245872766026707, 43.80348731478899]}, 
 "type": "Feature", "properties": {"indirizzo": "Largo Giovanni Alessandro Brambilla, 3 - Firenze", "denominazi": "Ufficio Relazioni con il Pubblico dell' AOU CAREGGI  - Centro Servizi Nuovo Ingresso Careggi", "id": 29, "tipologia": "URP -  AOU CAREGGI"}}]}